{"type":"FeatureCollection","bbox":[139.317582,36.839226,141.008259,37.920214],"features":[{"type":"Feature","properties":{"P29_001":"07203","P29_002":"16","P29_003":"16002","P29_004":"16002","P29_005":"逢瀬中学校","P29_006":"逢瀬町多田野長倉山1-1","P29_007":3,"label":"逢瀬中"},"geometry":{"type":"Point","coordinates":[140.271933,37.406656]}},{"type":"Feature","properties":{"P29_001":"07203","P29_002":"16","P29_003":"16002","P29_004":"16002","P29_005":"安積第二中学校","P29_006":"安積町成田兎田向1-1","P29_007":3,"label":"安積第二中"},"geometry":{"type":"Point","coordinates":[140.339985,37.354164]}},{"type":"Feature","properties":{"P29_001":"07203","P29_002":"16","P29_003":"16002","P29_004":"16002","P29_005":"安積中学校","P29_006":"成山町1","P29_007":3,"label":"安積中"},"geometry":{"type":"Point","coordinates":[140.363037,37.365274]}},{"type":"Feature","properties":{"P29_001":"07203","P29_002":"16","P29_003":"16002","P29_004":"16002","P29_005":"喜久田中学校","P29_006":"喜久田町堀之内下上の台19","P29_007":3,"label":"喜久田中"},"geometry":{"type":"Point","coordinates":[140.342759,37.455264]}},{"type":"Feature","properties":{"P29_001":"07203","P29_002":"16","P29_003":"16002","P29_004":"16002","P29_005":"宮城中学校","P29_006":"中田町高倉古御舘178-1","P29_007":3,"label":"宮城中"},"geometry":{"type":"Point","coordinates":[140.445323,37.372541]}},{"type":"Feature","properties":{"P29_001":"07203","P29_002":"16","P29_003":"16002","P29_004":"16002","P29_005":"郡山ザベリオ学園中学校","P29_006":"大槻町古屋敷102","P29_007":4,"label":"郡山ザベリオ学園中"},"geometry":{"type":"Point","coordinates":[140.323317,37.401658]}},{"type":"Feature","properties":{"P29_001":"07203","P29_002":"16","P29_003":"16002","P29_004":"16002","P29_005":"郡山第一中学校","P29_006":"菜根2-1-31","P29_007":3,"label":"郡山第一中"},"geometry":{"type":"Point","coordinates":[140.360536,37.389716]}},{"type":"Feature","properties":{"P29_001":"07203","P29_002":"16","P29_003":"16002","P29_004":"16002","P29_005":"郡山第五中学校","P29_006":"桜木2-20-5","P29_007":3,"label":"郡山第五中"},"geometry":{"type":"Point","coordinates":[140.368312,37.409436]}},{"type":"Feature","properties":{"P29_001":"07203","P29_002":"16","P29_003":"16002","P29_004":"16002","P29_005":"郡山第三中学校","P29_006":"菜根3-1-13","P29_007":3,"label":"郡山第三中"},"geometry":{"type":"Point","coordinates":[140.369702,37.386383]}},{"type":"Feature","properties":{"P29_001":"07203","P29_002":"16","P29_003":"16002","P29_004":"16002","P29_005":"郡山第四中学校","P29_006":"横塚6-25-31","P29_007":3,"label":"郡山第四中"},"geometry":{"type":"Point","coordinates":[140.406644,37.391384]}},{"type":"Feature","properties":{"P29_001":"07203","P29_002":"16","P29_003":"16002","P29_004":"16002","P29_005":"郡山第七中学校","P29_006":"大槻町原田西4","P29_007":3,"label":"郡山第七中"},"geometry":{"type":"Point","coordinates":[140.332762,37.380827]}},{"type":"Feature","properties":{"P29_001":"07203","P29_002":"16","P29_003":"16002","P29_004":"16002","P29_005":"郡山第二中学校","P29_006":"神明町5-10","P29_007":3,"label":"郡山第二中"},"geometry":{"type":"Point","coordinates":[140.373034,37.401104]}},{"type":"Feature","properties":{"P29_001":"07203","P29_002":"16","P29_003":"16002","P29_004":"16002","P29_005":"郡山第六中学校","P29_006":"富田町十文字2","P29_007":3,"label":"郡山第六中"},"geometry":{"type":"Point","coordinates":[140.343593,37.413046]}},{"type":"Feature","properties":{"P29_001":"07203","P29_002":"16","P29_003":"16002","P29_004":"16002","P29_005":"湖南中学校","P29_006":"湖南町三代京塚581-1","P29_007":3,"label":"湖南中"},"geometry":{"type":"Point","coordinates":[140.112783,37.382488]}},{"type":"Feature","properties":{"P29_001":"07203","P29_002":"16","P29_003":"16002","P29_004":"16002","P29_005":"御舘中学校","P29_006":"中田町中津川町田前388","P29_007":3,"label":"御舘中"},"geometry":{"type":"Point","coordinates":[140.512747,37.363057]}},{"type":"Feature","properties":{"P29_001":"07203","P29_002":"16","P29_003":"16002","P29_004":"16002","P29_005":"行健中学校","P29_006":"富久山町久保田大原16","P29_007":3,"label":"行健中"},"geometry":{"type":"Point","coordinates":[140.380255,37.421657]}},{"type":"Feature","properties":{"P29_001":"07203","P29_002":"16","P29_003":"16002","P29_004":"16002","P29_005":"高瀬中学校","P29_006":"田村町上行合北山田1","P29_007":3,"label":"高瀬中"},"geometry":{"type":"Point","coordinates":[140.411089,37.365553]}},{"type":"Feature","properties":{"P29_001":"07203","P29_002":"16","P29_003":"16002","P29_004":"16002","P29_005":"三穂田中学校","P29_006":"三穂田町富岡葛幡20","P29_007":3,"label":"三穂田中"},"geometry":{"type":"Point","coordinates":[140.272214,37.347495]}},{"type":"Feature","properties":{"P29_001":"07203","P29_002":"16","P29_003":"16002","P29_004":"16002","P29_005":"守山中学校","P29_006":"田村町山中団子田177-2","P29_007":3,"label":"守山中"},"geometry":{"type":"Point","coordinates":[140.397476,37.338646]}},{"type":"Feature","properties":{"P29_001":"07203","P29_002":"16","P29_003":"16002","P29_004":"16002","P29_005":"小原田中学校","P29_006":"小原田3-20-41","P29_007":3,"label":"小原田中"},"geometry":{"type":"Point","coordinates":[140.388312,37.380273]}},{"type":"Feature","properties":{"P29_001":"07203","P29_002":"16","P29_003":"16002","P29_004":"16002","P29_005":"西田中学校","P29_006":"西田町鬼生田杉内535","P29_007":3,"label":"西田中"},"geometry":{"type":"Point","coordinates":[140.44386,37.460266]}},{"type":"Feature","properties":{"P29_001":"07203","P29_002":"16","P29_003":"16002","P29_004":"16002","P29_005":"大槻中学校","P29_006":"大槻町西の宮西4-1","P29_007":3,"label":"大槻中"},"geometry":{"type":"Point","coordinates":[140.319942,37.39632]}},{"type":"Feature","properties":{"P29_001":"07203","P29_002":"16","P29_003":"16002","P29_004":"16002","P29_005":"二瀬中学校","P29_006":"田村町栃本大花10","P29_007":3,"label":"二瀬中"},"geometry":{"type":"Point","coordinates":[140.495807,37.302507]}},{"type":"Feature","properties":{"P29_001":"07203","P29_002":"16","P29_003":"16002","P29_004":"16002","P29_005":"日和田中学校","P29_006":"日和田町中林27","P29_007":3,"label":"日和田中"},"geometry":{"type":"Point","coordinates":[140.383033,37.454432]}},{"type":"Feature","properties":{"P29_001":"07203","P29_002":"16","P29_003":"16002","P29_004":"16002","P29_005":"熱海中学校","P29_006":"熱海町玉川阿曽沢山19-2","P29_007":3,"label":"熱海中"},"geometry":{"type":"Point","coordinates":[140.289429,37.484148]}},{"type":"Feature","properties":{"P29_001":"07203","P29_002":"16","P29_003":"16002","P29_004":"16002","P29_005":"富田中学校","P29_006":"富田町細田83-1","P29_007":3,"label":"富田中"},"geometry":{"type":"Point","coordinates":[140.360535,37.421934]}},{"type":"Feature","properties":{"P29_001":"07203","P29_002":"16","P29_003":"16002","P29_004":"16002","P29_005":"片平中学校","P29_006":"片平町大笠松4","P29_007":3,"label":"片平中"},"geometry":{"type":"Point","coordinates":[140.311446,37.421404]}},{"type":"Feature","properties":{"P29_001":"07203","P29_002":"16","P29_003":"16002","P29_004":"16002","P29_005":"緑ケ丘中学校","P29_006":"緑ヶ丘西4-1-1","P29_007":3,"label":"緑ケ丘中"},"geometry":{"type":"Point","coordinates":[140.429943,37.3899]}},{"type":"Feature","properties":{"P29_001":"07203","P29_002":"16","P29_003":"99999","P29_004":"16002","P29_005":"明健中学校","P29_006":"富久山町八山田大森新田70","P29_007":3,"label":"明健中"},"geometry":{"type":"Point","coordinates":[140.38573965899133,37.43058786313339]}},{"type":"Feature","properties":{"P29_001":"07203","P29_002":"16","P29_003":"99999","P29_004":"16002","P29_005":"川内中学校","P29_006":"逢瀬町多田野長倉山1-1（逢瀬中学校内）","P29_007":3,"label":"川内中"},"geometry":{"type":"Point","coordinates":[140.271859,37.40673699996611]}}]}